fecha,dia,hora,latitud,longitud,tipologia,direccion,zona,parroquia_urbana,causas,nro_heridos,nro_fallecidos
01-01,martes,h04,-4.0022708,-79.2122419,estrellamiento,de los paltas y caran shiri,urbana,sucre,conducir en estado de embriaguez,0,0
01-01,martes,h06,-4.0248139,-79.2032554,estrellamiento,pio jaramillo alvarado entre benjamin franklin y heroes del cenepa,urbana,punzara,imprudencia del conductor,0,0
01-01,martes,h06,-3.97596884,-79.2278882,roce positivo,isidro ayora barrio plateado,urbana,sucre,imprudencia del conductor,2,0
01-01,martes,h02,-3.9604263,-79.216096,choque lateral angular,8 de diciembre y belisario moreno,urbana,carigan,imprudencia del conductor,0,0
01-01,martes,h03,-4.0000443,-79.234883,estrellamiento,integracion barrial - angel felicisimo rojas,urbana,punzara,conducir en estado de embriaguez,0,0
01-02,miercoles,h13,-3.998836,-79.196846,choque lateral angular,emiliano ortega y miguel riofrio,urbana,el sagrario,no ceder el derecho de via,2,0
01-03,jueves,h19,-3.95855,-79.2174501,estrellamiento,8 de diciembre y manuela saenz,urbana,carigan,conducir en exceso de velocidad,1,0
01-05,sabado,h01,-3.9981812,-79.2020039,choque lateral perpendicular,bolivar y rocafuerte,urbana,el sagrario,no ceder el derecho de via,0,0
01-06,domingo,h02,-4.0005379,-79.2062593,choque lateral perpendicular,ramon pinto y azuay,urbana,el sagrario,conducir en estado de embriaguez,0,0
01-07,lunes,h07,-3.996323,-79.203167,choque lateral angular,sucre y jose antonio eguiguren,urbana,sucre,no ceder el derecho de via,0,0
01-07,lunes,h20,-3.980827,-79.222047,choque frontal excentrico,charity y martury,urbana,sucre,cambio brusco e indebido de carril,3,0
01-09,miercoles,h12,-3.9697247,-79.2078765,atropello,jaime roldos entre 8 de diciembre y velasco ibarra,urbana,carigan,imprudencia del conductor,2,0
01-10,jueves,h11,-3.9975339,-79.2051789,atropello,manuel agustin aguirre y 10 de agosto,urbana,el sagrario,imprudencia del conductor,1,0
01-11,viernes,h10,-4.001891,-79.195434,choque lateral perpendicular,emiliano ortega y lourdes,urbana,el sagrario,no ceder el derecho de via,2,0
01-11,viernes,h18,-3.9871157,-79.2055477,choque lateral perpendicular,cuxibamba y bolivar bailon,urbana,el valle,no ceder el derecho de via,0,0
01-12,sabado,h22,-4.027231,-79.20310033,choque lateral perpendicular,pio jaramillo alvarado y galileo galilei,urbana,punzara,conducir en estado de embriaguez,1,0
01-12,sabado,h01,-3.946139,-79.2222592,choque lateral angular,8 de diciembre entre eduardo palacios y chantaco,urbana,carigan,conducir en estado de embriaguez,0,0
01-12,sabado,h12,-4.0097442,-79.1998064,perdida de carril,maximo agustin rodriguez frente al coliseo de la unidad educativa del milenio,urbana,san sebastian,fallas mecanicas no previsibles,2,0
01-12,sabado,h21,-4.009572,-79.2036173,choque lateral perpendicular,manuel agustin aguirre y chile,urbana,punzara,no ceder el derecho de via,2,0
01-13,domingo,h06,-3.9702319,-79.2097899,perdida de carril,pablo palacios y arturo armijos ayala,urbana,carigan,fallas mecanicas no previsibles,0,0
01-13,domingo,h14,-3.9851352,-79.2058773,choque lateral angular,cuxibamba y ibarra,urbana,el valle,no respetar las senales de transito,0,0
01-13,domingo,h13,-4.007,-79.115,choque lateral angular,24 de mayo y lourdes,urbana,san sebastian,no respetar las senales de transito,0,0
01-14,lunes,h16,-4.0328693,-79.2014299,choque lateral angular,reinaldo espinoza,urbana,punzara,no ceder el derecho de via,1,0
01-15,martes,h10,-4.01327,-79.206019,colision,benjamin carrion y tomas rodrigo,urbana,punzara,conducir en estado de embriaguez,1,0
01-16,miercoles,h12,-4.0113549,-79.1974317,atipico,catamayo y guayacanes,urbana,san sebastian,imprudencia del conductor,0,0
01-17,jueves,h09,-3.9921507,-79.20109653,choque lateral perpendicular,orillas del zamora y jose felix de valdivieso,urbana,el valle,cambio brusco e indebido de carril,1,0
01-17,jueves,h22,-4.0014756,-79.2044808,choque lateral perpendicular,mercadillo y universitaria,urbana,san sebastian,no ceder el derecho de via,2,0
01-17,jueves,h22,-3.9928786,-79.2007785,estrellamiento,orillas del zamora entre segundo puertas moreno y clodoveo carrion,urbana,el valle,conducir en estado de embriaguez,4,0
01-18,viernes,h23,-3.999212,-79.21178,choque lateral perpendicular,de los paltas entre ines jimenes y nicolas jurado,urbana,sucre,invadir carril de circulacion,0,0
01-19,sabado,h01,-3.9973738,-79.2049664,choque lateral angular,universitaria y 10 de agosto,urbana,el sagrario,imprudencia del conductor,0,0
01-19,sabado,h14,-4.0189428,-79.2104363,choque lateral perpendicular,porfidio diaz y eloy alfaro,urbana,punzara,no ceder el derecho de via,0,0
01-19,sabado,h21,-3.9951088,-79.1981759,choque por alcance,orillas del zamora y 24 de mayo,urbana,el sagrario,conducir en estado de embriaguez,1,0
01-20,domingo,h18,-4.024072,-79.206003,perdida de carril,jose maria vivar castro entre jose robles carrion y americo vespucio,urbana,punzara,conducir en exceso de velocidad,0,0
01-20,domingo,h00,-3.965459,-79.2126287,estrellamiento,8 de diciembre y fenix,urbana,carigan,conducir en estado de embriaguez,0,0
01-21,lunes,h09,-3.9924254,-79.2034525,choque lateral perpendicular,sucre y jose felix de valdivieso,urbana,sucre,no ceder el derecho de via,0,0
01-22,martes,h15,-3.9757116,-79.2045664,atropello,8 de diciembre y francisco robles,urbana,sucre,conducir en exceso de velocidad,1,0
01-23,miercoles,h03,-3.9702319,-79.2097899,estrellamiento,francisco garcia lorca y romulo gallegos,urbana,san sebastian,conducir en exceso de velocidad,0,0
01-25,viernes,h10,-4.0036051,-79.2035186,choque lateral perpendicular,18 de noviembre y catacocha,urbana,san sebastian,conducir en exceso de velocidad,0,0
01-25,viernes,h16,-4.0100069,-79.2005718,atropello,maximiliano agustin rodriguez y eduardo kingman,urbana,san sebastian,conducir en exceso de velocidad,1,0
01-27,domingo,h04,-3.9785974,-79.2263903,encunetamiento,pablo palacios,urbana,carigan,conducir en exceso de velocidad,0,0
01-27,domingo,h06,-3.9570459,-79.2197678,choque frontal excentrico,8 de diciembre y manuel cabrera,urbana,carigan,conducir en estado de embriaguez,1,0
01-27,domingo,h17,-3.9992854,-79.2329855,atropello,villonaco,urbana,sucre,conducir en estado de embriaguez,1,0
01-27,domingo,h19,-3.5646,-79.132,estrellamiento,8 de diciembre,urbana,carigan,conducir en estado de embriaguez,1,1
02-01,viernes,h12,-4.0125513,-79.2198826,atropello,eugenio espejo y paquistan,urbana,sucre,imprudencia del peaton,1,0
02-02,sabado,h16,-4.0019227,-79.1954773,choque lateral perpendicular,emiliano ortega y lourdes,urbana,el sagrario,conducir en exceso de velocidad,1,0
02-03,domingo,h06,-4.01779,-79.23038,choque lateral angular,angel felicisimo rojas y eugenio espejo,urbana,sucre,imprudencia del conductor,0,0
02-03,domingo,h04,-3.9986758,-79.2219128,estrellamiento,villonaco,urbana,sucre,conducir en estado de embriaguez,0,0
02-03,domingo,h16,-4.18797,-79.229147,estrellamiento,urbanizacion la cascarilla s/n,urbana,sucre,fallas mecanicas no previsibles,0,0
02-04,lunes,h23,-3.972139,-79.2214089,perdida de carril,pablo palacios y buenentura,urbana,carigan,conducir en estado de embriaguez,1,0
02-05,martes,h09,-3.9853162,-79.1932197,choque lateral angular,jose coronel illescas,urbana,el valle,no ceder el derecho de via,0,0
02-05,martes,h19,-3.9685,-79.20969,choque lateral angular,8 de diciembre y tribuno,urbana,carigan,imprudencia del conductor,0,0
02-06,miercoles,h07,-3.9946564,-79.1993132,choque lateral perpendicular,emiliano ortega y juan jose pena,urbana,el sagrario,no ceder el derecho de via,2,0
02-06,miercoles,h06,-3.9941179,-79.2014482,choque lateral perpendicular,bernardo valdivieso e imbabura,urbana,el sagrario,no ceder el derecho de via,0,0
02-08,viernes,h13,-3.9882224,-79.1981643,choque lateral angular,paris y praga,urbana,el valle,no ceder el derecho de via,0,0
02-09,sabado,h02,-3.9914887,-79.2024591,choque lateral perpendicular,juan de salinas y bolivar,urbana,el sagrario,imprudencia del conductor,1,0
02-09,sabado,h01,-3.9902927,-79.2098282,estrellamiento,manuel carrion pinzano entre benjamin pereira y jose maria riofrio,urbana,sucre,conducir en estado de embriaguez,0,0
02-10,domingo,h19,-3.9961642,-79.2002097,choque lateral perpendicular,olmedo y jose antonio eguiguren,urbana,el sagrario,no ceder el derecho de via,0,0
02-10,domingo,h03,-3.960475,-79.21605,estrellamiento,8 de diciembre y belisario moreno,urbana,carigan,conducir en exceso de velocidad,1,0
02-10,domingo,h05,-3.9480585,-79.2190656,estrellamiento,salvador bustamante celi,urbana,el valle,conducir en exceso de velocidad,0,0
02-10,domingo,h08,-3.9927416,-79.2539703,estrellamiento,via a la subestacion villonaco,urbana,sucre,conducir en exceso de velocidad,0,0
02-10,domingo,h08,-3.9836098,-79.2204782,choque lateral angular,charity y s/n,urbana,sucre,cambio brusco e indebido de carril,0,0
02-10,domingo,h09,-4.0059828,-79.2033252,choque lateral perpendicular,celica y 18 de noviembre,urbana,san sebastian,no respetar las senales de transito,0,0
02-10,domingo,h15,-3.953388,-79.2208217,choque lateral angular,8 de diciembre y zoila alvarado,urbana,carigan,cambio brusco e indebido de carril,1,0
02-10,domingo,h15,-3.5818,-79.1158,perdida de carril,agustin carrion palacios y salvador bustamante celi,urbana,el valle,conducir en exceso de velocidad,4,0
02-11,lunes,h19,-3.9952083,-79.2115172,estrellamiento,eplicachima y eugenio espejo,urbana,sucre,conducir en estado de embriaguez,0,0
02-12,martes,h15,-4.0175305,-79.2236254,atipico,ventanas y s/n,urbana,punzara,imprudencia del conductor,1,0
02-12,martes,h21,-4.0074532,-79.2023965,choque lateral perpendicular,sucre y gonzanama,urbana,san sebastian,no ceder el derecho de via,3,0
02-13,miercoles,h18,-3.9875468,-79.2100852,atipico,manuel carrion pinzano,urbana,sucre,imprudencia del conductor,0,0
02-13,miercoles,h22,-4.0022569,-79.1976077,choque lateral angular,24 de mayo y lourdes,urbana,san sebastian,no respetar las senales de transito,0,0
02-14,jueves,h10,-3.9850532,-79.2033681,choque lateral perpendicular,santo domingo e ibarra,urbana,sucre,no ceder el derecho de via,1,0
02-14,jueves,h15,-3.9831273,-79.2033305,choque lateral perpendicular,santo domingo y riobamba,urbana,sucre,no respetar las senales de transito,1,0
02-15,viernes,h07,-4.018919,-79.213087,choque lateral perpendicular,benjamin carrion y los olivios,urbana,punzara,conducir en estado de embriaguez,2,0
02-15,viernes,h04,-4.0124151,-79.2147265,estrellamiento,de los paltas y estados unidos,urbana,punzara,conducir en exceso de velocidad,1,0
02-14,jueves,h15,-4.005622,-79.202579,estrellamiento,sucre y celica,urbana,san sebastian,imprudencia del conductor,0,0
02-16,sabado,h22,-3.9854529,-79.2044369,choque lateral angular,gran colombia entre ibarra y tulcan,urbana,sucre,conducir en estado de embriaguez,1,0
02-17,domingo,h14,-4.0035425,-79.1996296,choque lateral perpendicular,olmedo y catacocha,urbana,san sebastian,no ceder el derecho de via,1,0
02-17,domingo,h16,-3.979036,-79.236329,atropello,angel felicisimo rojas,urbana,sucre,conducir en estado de embriaguez,2,0
02-20,miercoles,h10,-3.9816864,-79.200644,choque lateral perpendicular,guayaquil y portoviejo,urbana,el valle,no ceder el derecho de via,0,0
02-20,miercoles,h20,-4.0187304,-79.2124358,atropello,nazareth y benjamin carrion,urbana,punzara,imprudencia del peaton,1,0
02-21,jueves,h14,-3.9851732,-79.1929231,perdida de carril,jose coronel illescas,urbana,el valle,conducir en exceso de velocidad,0,0
02-21,jueves,h18,-3.951451,-79.252993,perdida de carril,via loja cuenca,urbana,carigan,conducir en estado de embriaguez,5,1
02-24,domingo,h06,-3.9974682,-79.2066285,choque lateral perpendicular,10 de agosto y ramon pinto,urbana,sucre,conducir en estado de embriaguez,0,0
02-24,domingo,h15,-3.9999439,-79.2129592,estrellamiento,eugenio espejo y ines jimenez,urbana,sucre,conducir en exceso de velocidad,0,0
02-25,lunes,h17,-3.955099,-79.2433431,arrollamiento,san lorenzo y s/n,urbana,carigan,imprudencia del peaton,1,0
02-25,lunes,h19,-4.0519943,-79.1958083,choque por alcance,exodo de yangana,urbana,punzara,conducir en estado de embriaguez,2,0
02-25,lunes,h23,-4.0042541,-79.2003222,choque lateral perpendicular,olmedo y andres bello,urbana,san sebastian,no ceder el derecho de via,1,0
02-26,martes,h08,-3.9907302,-79.2097209,choque lateral angular,manuel carrion pinzano y jose maria riofrio,urbana,sucre,no respetar las senales de transito,1,0
02-26,martes,h01,-3.960319,-79.213631,estrellamiento,sin nombre / conjunto rivera 2,urbana,el valle,conducir en exceso de velocidad,0,0
02-26,martes,h22,-4.0322555,-79.2064226,choque lateral angular,eloy alfaro y condamine,urbana,punzara,conducir en estado de embriaguez,0,0
02-27,miercoles,h07,-3.973637,-79.2015658,choque lateral angular,salvador bustamante celi,urbana,el valle,no ceder el derecho de via,0,0
02-28,jueves,h16,-4.0014316,-79.2036795,choque por alcance,mercadillo y 18 de noviembre,urbana,el sagrario,no mantener la distancia reglamentaria,0,0
03-01,viernes,h04,-3.9414285,-79.2252661,estrellamiento,8 de diciembre y masaccio,urbana,carigan,conducir en exceso de velocidad,0,0
03-01,viernes,h21,-3.999385,-79.2022178,choque lateral perpendicular,olmedo y rocafuerte,urbana,el sagrario,conducir en estado de embriaguez,2,0
03-03,domingo,h05,-3.9995126,-79.2203212,estrellamiento,villonaco,urbana,sucre,conducir en exceso de velocidad,0,0
03-04,lunes,h23,-4.0001137,-79.2057407,estrellamiento,lauro guerrero entre azuay y miguel riofrio,urbana,sucre,conducir en exceso de velocidad,0,0
03-05,martes,h19,-3.9710172,-79.1976126,estrellamiento,agustin carrion palacios y s/n,urbana,el valle,conducir en estado de embriaguez,1,0
03-06,miercoles,h05,-3.990747,-79.160522,estrellamiento,via loja zamora,urbana,el valle,conducir en exceso de velocidad,0,0
03-07,jueves,h01,-4.0377357,-79.2065836,estrellamiento,angel felicisimo rojas y reinaldo espinoza,urbana,punzara,conducir en estado de embriaguez,0,0
03-07,jueves,h09,-3.9775715,-79.2076938,choque lateral angular,isidro ayora y manuel carrion pinzano,urbana,sucre,no ceder el derecho de via,1,0
03-07,jueves,h11,-3.9992351,-79.1972953,atropello,macara y miguel riofrio,urbana,el sagrario,imprudencia del peaton,1,0
03-07,jueves,h13,-4.0125771,-79.198781,atropello,romerillos entre arupos y molles,urbana,san sebastian,conducir en estado de embriaguez,2,0
03-09,sabado,h11,-3.9861849,-79.2033882,atropello,tulcan y santo domingo de los colorados,urbana,sucre,imprudencia del peaton,1,0
03-10,domingo,h02,-3.9967253,-79.195413,estrellamiento,santa marianita de jesus y 10 de agosto,urbana,el sagrario,conducir en estado de embriaguez,0,0
03-10,domingo,h05,-3.9768287,-79.2292173,perdida de carril,isidro ayora,urbana,sucre,conducir en exceso de velocidad,1,0
03-10,domingo,h17,-4.0107122,-79.2045782,colision,pio jaramillo alvarado y chile,urbana,punzara,conducir en estado de embriaguez,2,0
03-13,miercoles,h06,-3.9729737,-79.2208608,estrellamiento,pablo palacios y brasilia,urbana,carigan,conducir en exceso de velocidad,0,0
03-16,sabado,h17,-3.9975339,-79.2051789,atropello,manuel agustin aguirre y 10 de agosto,urbana,sucre,imprudencia del peaton,1,0
03-17,domingo,h01,-3.9810775,-79.2038629,choque lateral perpendicular,machala y guayaquil,urbana,sucre,no ceder el derecho de via,1,0
03-16,sabado,h12,-4.0114633,-79.201181,estrellamiento,eduardo kingman y catamayo,urbana,san sebastian,conducir en exceso de velocidad,3,0
03-20,miercoles,h15,-4.009239,-79.217543,estrellamiento,eugenio espejo y polonia,urbana,sucre,conducir en exceso de velocidad,0,0
03-20,miercoles,h18,-3.963622,-79.237371,perdida de carril,via loja cuenca,urbana,carigan,conducir en exceso de velocidad,0,0
03-21,jueves,h11,-4.003738,-79.207305,estrellamiento,pio jaramillo alvarado y venezuela,urbana,sucre,conducir en estado de embriaguez,0,0
03-22,viernes,h04,-4.0034135,-79.2093004,perdida de carril,huaranis y nicaragua,urbana,sucre,conducir en exceso de velocidad,0,0
03-22,viernes,h13,-4.002551,-79.204633,choque lateral perpendicular,manuel agustin aguirre entre lourdes y teniente maximiliano,urbana,el sagrario,no ceder el derecho de via,1,0
03-22,viernes,h13,-3.9973738,-79.2049664,atropello,universitaria y 10 de agosto,urbana,el sagrario,imprudencia del peaton,1,0
03-22,viernes,h16,-3.976651,-79.237682,estrellamiento,angel felicisimo rojas,urbana,sucre,conducir en exceso de velocidad,1,0
03-24,domingo,h15,-4.011249,-79.2010937,choque por alcance,eduardo kingman y catamayo,urbana,san sebastian,conducir en estado de embriaguez,0,0
03-24,domingo,h19,-3.9927,-79.209987,choque por alcance,manuel carrion pinzano y adolfo valarzo,urbana,sucre,no mantener la distancia reglamentaria,0,0
03-24,domingo,h21,-4.003917,-79.208584,choque frontal excentrico,peru y venezuela,urbana,sucre,invadir carril de circulacion,1,0
03-25,lunes,h03,-4.0553211,-79.195907,estrellamiento,exodo de yanagana y angel felicisimo rojas,urbana,punzara,conducir en exceso de velocidad,3,0
03-26,martes,h07,-4.0036145,-79.1996777,choque lateral perpendicular,olmedo y catacocha,urbana,san sebastian,imprudencia del conductor,1,0
03-27,miercoles,h16,-4.0094948,-79.2029352,atipico,chile y 18 de noviembre,urbana,san sebastian,imprudencia del conductor,1,0
03-28,jueves,h11,-4.0022194,-79.1987268,choque lateral angular,juan jose pena y lourdes,urbana,san sebastian,no ceder el derecho de via,0,0
03-30,sabado,h06,-4.005741,-79.202992,choque por alcance,eduardo kingman entre gonzanama y saraguro,urbana,san sebastian,no mantener la distancia reglamentaria,0,0
03-29,viernes,h22,-3.998932,-79.197331,choque lateral perpendicular,macara y miguel riofrio,urbana,san sebastian,conducir en exceso de velocidad,0,1
03-30,sabado,h18,-3.984257,-79.164103,choque lateral perpendicular,via loja zamora,urbana,el valle,conducir en estado de embriaguez,0,0
04-01,lunes,h11,-3.949966,-79.216101,atropello,salvador bustamante celi y via a chinguilanchi,urbana,el valle,imprudencia del peaton,1,0
04-01,lunes,h14,-3.969087,-79.204438,choque lateral angular,salvador bustamante celi y miguel cano madrid,urbana,el valle,no ceder el derecho de via,0,0
04-01,lunes,h21,-3.97148,-79.2067098,atropello,8 de diciembre,urbana,carigan,imprudencia del peaton,1,0
04-03,miercoles,h21,-3.9812555,-79.2029569,choque lateral perpendicular,nueva loja y guayaquil,urbana,el valle,no respetar las senales de transito,0,0
04-04,jueves,h03,-4.007852,-79.202353,estrellamiento,gonzanama y celica,urbana,san sebastian,conducir en exceso de velocidad,0,0
04-05,viernes,h06,-4.0034466,-79.1977521,estrellamiento,24 de mayo y catacocha,urbana,el sagrario,conducir en exceso de velocidad,1,0
04-06,sabado,h05,-3.9986055,-79.219293,perdida de carril,villonaco entre sin nombre y virgen orante,urbana,sucre,conducir en exceso de velocidad,0,0
04-07,domingo,h09,-4.0330251,-79.1988707,choque lateral perpendicular,exodo de yangana entre reinaldo espinoza y eduardo kingman,urbana,san sebastian,no ceder el derecho de via,0,0
04-08,lunes,h09,-3.986797,-79.2028511,roce negativo,nueva loja y guaranda,urbana,sucre,no mantener la distancia reglamentaria,0,0
04-08,lunes,h13,-4.006279,-79.2038338,choque lateral perpendicular,universitaria y celica,urbana,san sebastian,no ceder el derecho de via,0,0
04-08,lunes,h22,-4.0004867,-79.204832,choque lateral angular,manuel agustin aguirre y azuay,urbana,el sagrario,no ceder el derecho de via,0,0
04-09,martes,h00,-3.9537644,-79.2155384,perdida de carril,salvador bustamante celi sector amable maria,urbana,el valle,conducir en exceso de velocidad,0,0
04-09,martes,h04,-3.9920443,-79.2106819,estrellamiento,juan maria riofrio y carlos errais,urbana,el sagrario,conducir en exceso de velocidad,0,0
04-09,martes,h17,-3.9850221,-79.2024818,choque lateral angular,nueva loja y ibarra,urbana,sucre,imprudencia del conductor,0,0
04-10,miercoles,h18,-4.016956,-79.198253,atipico,arabiscos antre gobernacion de mainas y yumbingue,urbana,san sebastian,imprudencia del conductor,1,0
04-11,jueves,h10,-4.0074563,-79.2037036,choque lateral angular,universitaria y gonzanama,urbana,san sebastian,imprudencia del conductor,1,0
04-11,jueves,h22,-4.0023108,-79.1997765,choque lateral perpendicular,olmedo y lourdes,urbana,san sebastian,no ceder el derecho de via,2,0
04-13,sabado,h09,-3.9974512,-79.2059952,atropello,10 de agosto y lauro guerrero,urbana,el sagrario,imprudencia del peaton,1,0
04-13,sabado,h14,-3.9732506,-79.2016038,choque lateral perpendicular,salvador bustamante celi y agustin palacios,urbana,el valle,conducir en estado de embriaguez,0,0
04-13,sabado,h10,-3.9903954,-79.1977074,choque lateral angular,paris y brucelas,urbana,el valle,no ceder el derecho de via,0,0
04-15,lunes,h07,-4.0230444,-79.2032573,choque lateral angular,pio jaramillo alvarado y nicolas copernico,urbana,punzara,no ceder el derecho de via,0,0
04-17,miercoles,h00,-3.5925,-79.1113,perdida de carril,"santa marianita de jesus, via antigua a zamora",urbana,el sagrario,conducir en exceso de velocidad,0,0
04-17,miercoles,h09,-4.012075,-79.204585,choque lateral perpendicular,pio jaramillo alvarado y gobernacion de mainas,urbana,punzara,conducir en exceso de velocidad,0,0
04-20,sabado,h01,-3.9904254,-79.2108445,estrellamiento,jose maria riofrio y francisco valdivieso,urbana,sucre,conducir en exceso de velocidad,0,0
04-20,sabado,h02,-3.9987716,-79.2223403,estrellamiento,vilonaco barrio obrapia,urbana,sucre,conducir en estado de embriaguez,0,0
04-20,sabado,h15,-3.9923905,-79.2023912,choque lateral perpendicular,bolivar y jose felix de valdivieso,urbana,el sagrario,no ceder el derecho de via,0,0
04-21,domingo,h01,-3.9992525,-79.202964,choque lateral perpendicular,sucre y miguel riofrio,urbana,el sagrario,conducir en estado de embriaguez,0,0
04-21,domingo,h04,-3.998108,-79.200055,choque lateral angular,olmedo y rocafuerte,urbana,el sagrario,conducir en estado de embriaguez,1,0
04-22,lunes,h07,-4.0023108,-79.1997765,colision,olmedo y lourdes,urbana,san sebastian,imprudencia del conductor,1,0
04-22,lunes,h14,-4.0522399,-79.1957787,atropello,exodo de yangana,urbana,san sebastian,imprudencia del peaton,1,0
04-22,lunes,h17,-4.0224421,-79.2045234,choque lateral angular,pedro de mendoza y jose marti,urbana,punzara,imprudencia del conductor,0,0
04-23,martes,h13,-3.986368,-79.2010884,choque lateral angular,santiago de las montanas y pedro de cianca,urbana,el valle,imprudencia del conductor,1,0
04-26,viernes,h07,-3.9923313,-79.20239,choque lateral angular,bolivar y jose felix de valdivieso,urbana,el sagrario,no ceder el derecho de via,0,0
04-28,domingo,h02,-4.022133,-79.2033246,perdida de carril,pio jaramillo alvarado y pascal,urbana,punzara,conducir en exceso de velocidad,0,0
04-28,domingo,h03,-4.0032671,-79.2297985,perdida de carril,angel felicisimo rojas,urbana,sucre,conducir en exceso de velocidad,0,1
04-27,sabado,h16,-3.9921859,-79.20027,choque lateral perpendicular,segundo cueva celi y clodoveo carrion,urbana,el sagrario,no ceder el derecho de via,0,0
04-28,domingo,h19,-4.00849,-79.2169,choque frontal excentrico,eugenio espejo y francia,urbana,punzara,invadir carril de circulacion,1,0
04-30,martes,h20,-3.966006,-79.238847,choque lateral angular,angel felicisimo rojas,urbana,sucre,razones desconocidas,1,0
05-01,miercoles,h04,-3.9816864,-79.200644,estrellamiento,portoviejo y guayaquil,urbana,el valle,conducir en estado de embriaguez,2,0
05-02,jueves,h18,-3.966006,-79.1898192,perdida de carril,rio maranon y rio madeira,urbana,san sebastian,conducir en estado de embriaguez,2,0
05-03,viernes,h18,-4.0026101,-79.2065847,choque lateral angular,ramon pinto y tnte maximiliano rodriguez,urbana,el sagrario,conducir en estado de embriaguez,0,0
05-04,sabado,h03,-3.9902827,-79.2099453,perdida de carril,manuel carrion pinzano y benjamin carrion pereira,urbana,sucre,conducir en exceso de velocidad,0,0
05-04,sabado,h15,-3.9950015,-79.1992524,choque lateral perpendicular,juan jose pena y colon,urbana,el sagrario,no ceder el derecho de via,0,0
05-05,domingo,h14,-3.9993016,-79.2029647,choque lateral perpendicular,sucre y miguel riofrio,urbana,el sagrario,no ceder el derecho de via,0,0
05-05,domingo,h19,-3.9839928,-79.2370952,choque por alcance,barrio el plateado via loja catamayo,urbana,sucre,conducir en estado de embriaguez,0,0
05-06,lunes,h08,-3.9914389,-79.2019783,choque lateral perpendicular,juan de salinas y emiliano ortega,urbana,el sagrario,cambio brusco e indebido de carril,0,0
05-07,martes,h05,-3.9902061,-79.2098173,choque lateral perpendicular,manul carrion pinzano y benjamin pereira,urbana,sucre,no ceder el derecho de via,1,0
05-08,miercoles,h05,-4.0124446,-79.2146426,estrellamiento,de los paltas y estados unidos,urbana,punzara,conducir en exceso de velocidad,1,0
05-09,jueves,h15,-3.9935253,-79.2053931,choque lateral angular,universitaria y quito,urbana,el sagrario,cambio brusco e indebido de carril,1,0
05-10,viernes,h14,-39778259,-79.2269918,choque lateral angular,isidro ayora barrio belen,urbana,sucre,conducir en estado de embriaguez,1,0
05-11,sabado,h03,-3.9983993,-79.2048517,estrellamiento,rocafuerte y universitaria,urbana,el sagrario,conducir en exceso de velocidad,0,0
05-12,domingo,h02,-3.9703212,-79.2217182,atipico,carigan sector de consacola,urbana,carigan,imprudencia del conductor,0,0
05-12,domingo,h04,-4.004456,-79.2067521,estrellamiento,pio jaramillo alvarado entre espana y argentina,urbana,punzara,conducir en estado de embriaguez,4,1
05-12,domingo,h12,-3.9970838,-79.21379,choque frontal excentrico,villonaco entre eugenio espejo y shushuhuaico,urbana,sucre,invadir carril de circulacion,4,0
05-11,sabado,h02,-3.9920582,-79.199585,choque lateral perpendicular,clodoveo carrion y pasaje santiago,urbana,san sebastian,no ceder el derecho de via,1,0
05-13,lunes,h15,-3.9525563,-79.2157683,estrellamiento,salvador bustamante celi,urbana,el valle,conducir en exceso de velocidad,0,0
05-13,lunes,h23,-3.9778769,-79.2078413,choque lateral perpendicular,manuel carrion pinzano e isidro ayora,urbana,sucre,no respetar las senales de transito,0,0
05-13,lunes,h23,-4.0152206,-79.208612,perdida de carril,jose artigas y sin nombre,urbana,punzara,conducir en exceso de velocidad,0,0
05-15,miercoles,h01,-3.9985709,-79.2194578,estrellamiento,villonaco y s/n,urbana,sucre,conducir en exceso de velocidad,0,0
05-15,miercoles,h05,-4.0087528,-79.2156289,perdida de carril,alemania e israel,urbana,punzara,conducir en exceso de velocidad,0,1
05-15,miercoles,h06,-3.9850386,-79.2021372,choque lateral angular,orillas del zamora e ibarra,urbana,sucre,cambio brusco e indebido de carril,0,0
05-15,miercoles,h08,-4.0127086,-79.2034117,roce negativo,manuel agustin aguirre y gobernacion de mainas,urbana,punzara,imprudencia del conductor,0,0
05-16,jueves,h08,-4.0119495,-79.2146235,choque por alcance,de los paltas barrio epoca,urbana,punzara,no mantener la distancia reglamentaria,0,0
05-16,jueves,h19,-3.9511883,-79.21594,choque lateral angular,salvador bustamante celi,urbana,el valle,conducir en estado de embriaguez,1,0
05-19,domingo,h02,-3.9893652,-79.2032776,choque lateral perpendicular,orillas del zamora y universitaria,urbana,el sagrario,conducir en exceso de velocidad,0,0
05-19,domingo,h06,-3.989868,-79.210031,choque lateral angular,manuel carrion pinzano entre pedro falconi y benjamin pereira,urbana,sucre,conducir en estado de embriaguez,1,0
05-19,domingo,h18,-4.0166546,-79.2337384,atropello,eugenio espejo entre la urna de chontacruz y barrio menfis alto,urbana,sucre,imprudencia del peaton,1,0
05-20,lunes,h09,-3.9447598,-79.2220308,choque por alcance,8 de diciembre y chantaco,urbana,carigan,conducir en estado de embriaguez,0,0
05-20,lunes,h15,-3.9817644,-79.2045316,atropello,cuxibamba y gran colombia,urbana,sucre,imprudencia del peaton,1,0
05-20,lunes,h18,-3.9684133,-79.2097149,choque lateral angular,8 de diciembre,urbana,carigan,no ceder el derecho de via,2,0
05-22,miercoles,h19,-4.0017832,-79.2036607,atropello,18 de noviembre y mercadillo,urbana,el sagrario,imprudencia del peaton,1,0
05-24,viernes,h20,-3.945766,-79.2224182,choque lateral angular,8 de diciembre y gualel,urbana,carigan,imprudencia del peaton,6,0
05-24,viernes,h03,-3.9790838,-79.209656,estrellamiento,isidro ayora y sin nombre,urbana,sucre,conducir en estado de embriaguez,1,1
05-22,miercoles,h13,-3.9990313,-79.2010631,roce negativo,bernardo valdivieso y miguel riofrio,urbana,el sagrario,no mantener la distancia reglamentaria,0,0
05-24,viernes,h06,-3.9385011,-79.2232205,estrellamiento,rafael sanzio y pedro pablo rubens,urbana,el valle,conducir en exceso de velocidad,0,0
05-25,sabado,h05,-4.0002213,-79.2018178,choque lateral perpendicular,bolivar y azuay,urbana,el sagrario,no ceder el derecho de via,1,0
05-25,sabado,h02,-4.0078844,-79.2077507,estrellamiento,brasil entre argentina y colombia,urbana,punzara,conducir en exceso de velocidad,1,0
05-26,domingo,h01,-3.9781514,-79.2026028,estrellamiento,orillas del zamora y santa rosa,urbana,el valle,conducir en exceso de velocidad,1,0
05-25,sabado,h15,-4.0036966,-79.2014632,estrellamiento,catacocha y bolivar,urbana,san sebastian,conducir en exceso de velocidad,0,0
05-29,miercoles,h06,-3.9798133,-79.2172025,atropello,isidro ayora sector comuna del plateado borja,urbana,sucre,imprudencia del conductor,1,0
05-31,viernes,h04,-4.0004867,-79.204832,choque lateral perpendicular,manuel agustin aguirre y azuay,urbana,el sagrario,no ceder el derecho de via,0,0
05-31,viernes,h21,-3.9813012,-79.2335986,estrellamiento,isidro ayora y angel felicisimo rojas,urbana,sucre,conducir en exceso de velocidad,0,0
06-15,sabado,h11,-3.971801,-79.234266,choque frontal excentrico,pablo palacios,urbana,carigan,invadir carril de circulacion,1,0
06-01,sabado,h17,-3.9753788,-79.2045879,estrellamiento,8 de diciembre y francisco robles,urbana,sucre,conducir en exceso de velocidad,0,0
06-01,sabado,h22,-3.9813012,-79.2335986,estrellamiento,isidro ayora y angel felicisimo rojas,urbana,sucre,conducir en exceso de velocidad,0,0
06-02,domingo,h03,-4.0140636,-79.1982559,estrellamiento,almendros y cipres,urbana,san sebastian,conducir en exceso de velocidad,0,0
06-03,lunes,h09,-3.9952598,-79.2021768,atropello,bolivar y colon,urbana,el sagrario,imprudencia del peaton,1,0
06-06,jueves,h12,-4.0094545,-79.2023235,choque lateral angular,sucre y chile,urbana,san sebastian,no ceder el derecho de via,0,0
06-08,sabado,h07,-4.0226999,-79.2032827,estrellamiento,pio jaramillo alvarado y leonardo da vinchi,urbana,punzara,imprudencia del conductor,1,0
06-07,viernes,h14,-3.9851245,-79.2044395,choque lateral perpendicular,gran colombia y ibarra,urbana,sucre,no ceder el derecho de via,1,0
06-07,viernes,h11,-3.9720844,-79.2018266,choque lateral angular,salvador bustamante celi y agustin carrion palacios,urbana,punzara,no respetar las senales de transito,0,0
06-07,viernes,h23,-4.0037932,-79.20588,estrellamiento,ramon pinto y venezuela,urbana,el sagrario,conducir en exceso de velocidad,0,0
06-08,sabado,h19,-4.0134067,-79.2048737,estrellamiento,jose j palacios y benjamin carrion,urbana,punzara,conducir en exceso de velocidad,0,0
06-09,domingo,h08,-3.842856,-79.344939,choque lateral angular,juan de salinas y bolivar,urbana,el sagrario,no ceder el derecho de via,0,0
06-09,domingo,h04,-3.9803655,-79.2044486,choque por alcance,8 de diciembre y guayaquil,urbana,el valle,no mantener la distancia reglamentaria,0,0
06-10,lunes,h12,-3.998305,-79.204224,estrellamiento,parte interna del parqueadero norte del mercado del centro comercial,urbana,el sagrario,imprudencia del conductor,0,0
06-09,domingo,h16,-4.0074127,-79.2032078,choque lateral perpendicular,18 de noviembre y gonzanama,urbana,san sebastian,no ceder el derecho de via,0,0
06-11,martes,h07,-4.0046594,-79.2042264,choque lateral angular,manuel agustin aguirre y jose picoita,urbana,el sagrario,no ceder el derecho de via,0,0
06-11,martes,h10,-3.976706,-79.204825,roce negativo,8 de diciembre y isidro ayora,urbana,sucre,no mantener la distancia reglamentaria,0,0
06-11,martes,h18,-3.9601949,-79.2112097,choque lateral angular,salvador bustamante celi y isla baltra,urbana,el valle,imprudencia del conductor,2,0
06-11,martes,h23,-4.017083,-79.200898,choque por alcance,eduardo kingman y alelies,urbana,san sebastian,no mantener la distancia reglamentaria,3,0
06-11,martes,h13,-3.994012,-79.198466,choque lateral angular,segundo cueva celi y prolongacion de la 24 de mayo,urbana,el sagrario,no respetar las senales de transito,2,0
06-12,miercoles,h23,-3.9782052,-79.2239083,choque frontal excentrico,la habana y isidro ayora,urbana,sucre,condiciones climaticas desfavorables,0,0
06-13,jueves,h06,-4.0207578,-79.1977412,choque lateral angular,alisos y duraznos,urbana,san sebastian,imprudencia del conductor,0,0
06-14,viernes,h05,-3.9950994,-79.2002923,choque lateral perpendicular,olmedo y colon,urbana,el sagrario,imprudencia del conductor,1,0
06-15,sabado,h12,-3.996886,-79.2050239,caida de pasajero,universitaria entre 10 de agosto y jose antonio eguiguren,urbana,el sagrario,imprudencia del conductor,1,0
06-15,sabado,h23,-3.997859,-79.2079885,estrellamiento,manuel carrion pinzano,urbana,sucre,conducir en estado de embriaguez,1,0
06-16,domingo,h00,-3.9765328,-79.2023773,choque lateral perpendicular,nueva loja y isidro ayora,urbana,sucre,no ceder el derecho de via,1,0
06-14,viernes,h11,-4.00776,-79.1995954,estrellamiento,maximiliano agustin rodriguez entre cesar vallejo y gabriel mistral,urbana,san sebastian,imprudencia del conductor,2,0
06-14,viernes,h13,-3.994091,-79.2014,choque lateral perpendicular,bernardo valdivieso e imbabura,urbana,el sagrario,no ceder el derecho de via,1,0
06-14,viernes,h19,-3.993317,-79.198458,estrellamiento,zoilo rodriguez y segundo cueva celi,urbana,el sagrario,imprudencia del conductor,0,0
06-15,sabado,h02,-3.968216,-79.2100247,rozamiento,8 de diciembre,urbana,carigan,conducir en estado de embriaguez,0,0
06-15,sabado,h17,-3.9744022,-79.2015108,choque lateral angular,salvador bustamante celi y daniel armijos,urbana,el valle,imprudencia del conductor,1,0
06-15,sabado,h23,-3.998952,-79.197941,choque lateral perpendicular,24 de mayo y azuay,urbana,el sagrario,no ceder el derecho de via,0,0
06-17,lunes,h03,-3.981544,-79.23351,perdida de carril,isidro ayora y angel felicisimo rojas,urbana,sucre,conducir en exceso de velocidad,2,0
06-18,martes,h16,-3.9931366,-79.2015143,choque lateral perpendicular,bernardo valdivieso y quito,urbana,el sagrario,no respetar las senales de transito,0,0
06-20,jueves,h07,-3.9790541,-79.2016707,choque lateral perpendicular,cuenca y chone,urbana,el valle,no ceder el derecho de via,0,0
06-20,jueves,h11,-4.0100155,-79.2072813,choque lateral perpendicular,vias internas del comando de la policia nacional ubicado en las argentina y brasil,urbana,punzara,imprudencia del conductor,0,0
06-20,jueves,h18,-4.0037661,-79.2035067,estrellamiento,18 de noviembre y catacocha,urbana,san sebastian,conducir en exceso de velocidad,0,0
06-20,jueves,h18,-3.9956717,-79.2130596,estrellamiento,villonaco,urbana,sucre,conducir en exceso de velocidad,0,0
06-20,jueves,h21,-3.9988555,-79.1967366,choque lateral perpendicular,emiliano ortega y miguel riofrio,urbana,el sagrario,no ceder el derecho de via,0,0
06-21,viernes,h22,-4.009991,-79.212811,atipico,brasil y gibraltar,urbana,punzara,razones desconocidas,0,0
06-22,sabado,h01,-4.00027,-79.199948,choque lateral perpendicular,olmedo y azuay,urbana,el sagrario,no ceder el derecho de via,0,0
06-22,sabado,h21,-3.988865,-79.209223,choque lateral angular,ramon burneo y pedro falconi,urbana,sucre,conducir en estado de embriaguez,2,0
06-22,sabado,h16,-3.9692127,-79.207283,choque frontal excentrico,velasco ibarra y jaime roldos aguilera,urbana,el valle,conducir en estado de embriaguez,2,0
06-24,lunes,h16,-3.9714533,-79.2146816,choque por alcance,pablo palacios y esteban sziguethy,urbana,carigan,no mantener la distancia reglamentaria,2,1
06-27,jueves,h22,-3.9841747,-79.2090252,choque lateral perpendicular,manuel carrion pinzano y clotario paz,urbana,sucre,no ceder el derecho de via,2,0
06-27,jueves,h14,-4.0022069,-79.1997868,choque lateral perpendicular,lourdes y olmedo,urbana,san sebastian,no ceder el derecho de via,2,0
06-29,sabado,h09,-4.0136812,-79.2032749,atropello,manuel agustin aguirre y kennedy,urbana,punzara,imprudencia del peaton,1,1
06-29,sabado,h07,-4.0023594,-79.1987091,choque lateral perpendicular,juan jose pena y lourdes,urbana,san sebastian,no ceder el derecho de via,2,1
06-29,sabado,h22,-3.9741168,-79.20014133,perdida de carril,beethoven,urbana,el valle,conducir en estado de embriaguez,1,0
06-29,sabado,h06,-4.0127857,-79.2176899,estrellamiento,estados unidos y grecia,urbana,punzara,conducir en estado de embriaguez,1,1
06-30,domingo,h13,-3.9782682,-79.2044652,estrellamiento,8 de diciembre y jaramijo,urbana,sucre,conducir en exceso de velocidad,1,1
06-30,domingo,h05,-3.9897877,-79.1968022,estrellamiento,praga y toronto,urbana,el valle,conducir en estado de embriaguez,1,0
07-02,martes,h17,-3.9922635,-79.2075262,atropello,manuel monteros y antonio pena celi,urbana,sucre,conducir en exceso de velocidad,1,0
07-02,martes,h16,-4.0014756,-79.2044808,atropello,universitaria y mercadillo,urbana,san sebastian,imprudencia del peaton,1,0
07-03,miercoles,h15,-3.9945259,-79.1992609,choque lateral angular,emiliano ortega y juan jose pena,urbana,el sagrario,no ceder el derecho de via,1,0
07-05,viernes,h01,-3.9455829,-79.2244319,estrellamiento,chuquiribamba y chantaco,urbana,carigan,conducir en exceso de velocidad,0,0
07-06,sabado,h00,-3.9940379,-79.210185,estrellamiento,manuel carrion pinzano y jose palacios,urbana,sucre,conducir en estado de embriaguez,0,0
07-06,sabado,h03,-3.9616933,-79.2383762,estrellamiento,angel felicisimo rojas,urbana,carigan,conducir en exceso de velocidad,0,0
07-06,sabado,h21,-4.0078785,-79.20747983,choque lateral angular,argentina y brasil,urbana,punzara,conducir en estado de embriaguez,0,0
07-06,sabado,h22,-4.0015703,-79.2055495,choque lateral perpendicular,lauro guerrero y mercadillo,urbana,sucre,conducir en estado de embriaguez,0,0
07-07,domingo,h07,-4.009583,-79.2030378,estrellamiento,18 de noviembre y chile,urbana,san sebastian,conducir en exceso de velocidad,0,0
07-06,sabado,h20,-3.976115,-79.201258,colision,salvador bustamante celi y isidro ayora,urbana,el valle,conducir en estado de embriaguez,0,0
07-08,lunes,h00,-4.000275,-79.2062914,choque frontal longitudinal,ramon pinto entre azuay y miguel riorfrio,urbana,el sagrario,conducir en estado de embriaguez,0,0
07-10,miercoles,h10,-3.99233,-79.2023831,choque frontal longitudinal,bolivar y jose felix de valdivieso,urbana,el sagrario,no ceder el derecho de via,1,0
07-10,miercoles,h07,-4.0363869,-79.2057992,atropello,reinaldo espinoza,urbana,punzara,conducir en exceso de velocidad,1,0
07-13,sabado,h07,-3.9702855,-79.2078236,volcamiento lateral,8 de diciembre,urbana,carigan,conducir en exceso de velocidad,2,0
07-13,sabado,h02,-3.998108,-79.1950426,estrellamiento,vicente rocafuerte y santa marianita de jesus,urbana,el sagrario,conducir en exceso de velocidad,0,0
07-13,sabado,h22,-3.9811525,-79.2029541,choque lateral perpendicular,nueva loja y guayaquil,urbana,el valle,conducir en estado de embriaguez,0,0
07-14,domingo,h01,-3.97984,-79.224402,estrellamiento,isidro ayora y cumanda,urbana,sucre,conducir en estado de embriaguez,0,0
07-13,sabado,h23,-4.0249892,-79.2031184,estrellamiento,pio jaramillo alvarado y heroes del cenepa,urbana,punzara,conducir en exceso de velocidad,2,0
07-16,martes,h00,-4.013994,-79.215122,colision,de los paltas y iran,urbana,punzara,imprudencia del conductor,0,0
07-20,sabado,h05,-4.0116239,-79.2190383,estrellamiento,eugenio espejo e irlanda,urbana,sucre,conducir en estado de embriaguez,0,0
07-20,sabado,h03,-3.9914582,-79.2053148,estrellamiento,universitaria y juan de salinas,urbana,el sagrario,conducir en exceso de velocidad,2,0
07-21,domingo,h08,-3.9907497,-79.2451822,atropello,villonaco y virgilio rodas,urbana,sucre,imprudencia del conductor,1,0
07-21,domingo,h14,-3.9827109,-79.2044958,choque lateral angular,gran colombia y riobamba,urbana,sucre,no ceder el derecho de via,0,0
07-21,domingo,h10,-3.9730564,-79.2206814,perdida de carril,pablo palacios y brasilia,urbana,carigan,conducir en exceso de velocidad,0,0
07-23,martes,h16,-4.0329134,-79.2025618,roce negativo,reinaldo espinoza - universidad nacional de loja,urbana,punzara,no mantener la distancia reglamentaria,0,0
07-23,martes,h05,-3.9699888,-79.2254442,atropello,via loja cuenca sector bolacachi,urbana,carigan,razones desconocidas,0,1
07-24,miercoles,h15,-3.9767762,-79.20460173,roce negativo,8 de diciembre y isidro ayora,urbana,sucre,imprudencia del conductor,0,0
07-24,miercoles,h19,-4.0063387,-79.2140158,colision,de los paltas y italia,urbana,sucre,negligencia del conductor,0,0
07-25,jueves,h08,-4.0182985,-79.2038259,caida de pasajero,pio jaramillo alvarado y jose rizal,urbana,punzara,imprudencia del conductor,1,0
07-26,viernes,h00,-4.0132928,-79.2104333,perdida de carril,jose de san martin y lucas,urbana,punzara,conducir en exceso de velocidad,2,0
07-26,viernes,h05,-4.0014913,-79.2046946,choque lateral angular,manuel agustin aguirre y mercadillo,urbana,san sebastian,conducir en estado de embriaguez,0,0
07-27,sabado,h15,-3.9854184,-79.1966895,roce negativo,jose coronel illescas y paris,urbana,el valle,conducir en estado de embriaguez,0,0
07-27,sabado,h17,-3.993263,-79.2043507,choque por alcance,18 de noviembre y quito,urbana,el sagrario,conducir en estado de embriaguez,0,0
07-28,domingo,h06,-3.967571,-79.238853,perdida de carril,angel felicisimo rojas,urbana,carigan,conducir en exceso de velocidad,0,0
07-28,domingo,h01,-3.9712374,-79.2068602,roce negativo,8 de diciembre,urbana,carigan,imprudencia del conductor,0,0
07-28,domingo,h05,-4.0043391,-79.2007091,estrellamiento,bernardo valdivieso y andres bello,urbana,san sebastian,conducir en exceso de velocidad,0,0
07-28,domingo,h08,-4.0002873,-79.2018938,choque lateral perpendicular,bolivar y azuay,urbana,el sagrario,no ceder el derecho de via,0,0
07-29,lunes,h23,-3.9781999,-79.2237502,perdida de carril,via loja catamayo,urbana,sucre,conducir en exceso de velocidad,0,0
07-30,martes,h01,-3.9809596,-79.2002202,estrellamiento,oriental de paso y dario eguiguren,urbana,el valle,conducir en estado de embriaguez,0,0
07-30,martes,h15,-3.9487287,-79.2222668,estrellamiento,8 de diciembre y eduardo palacios,urbana,carigan,conducir en exceso de velocidad,0,0
07-30,martes,h20,-3.9728271,-79.2177813,atropello,pablo palacios,urbana,carigan,imprudencia del peaton,1,0
07-31,miercoles,h19,-4.0092008,-79.2048461,atropello,pio jaramillo alvarado entre malvinas y chile,urbana,punzara,razones desconocidas,1,0
08-04,domingo,h03,-4.0067164,-79.2054086,choque lateral angular,pio jaramillo alvarado y brasil,urbana,punzara,no ceder el derecho de via,0,0
08-04,domingo,h06,-3.996294,-79.208159,estrellamiento,manuel carrion pinzano y maria de leiva,urbana,sucre,conducir en exceso de velocidad,0,0
08-04,domingo,h11,-3.989397,-79.203629,choque lateral perpendicular,emiliano ortega y universitaria,urbana,el valle,no ceder el derecho de via,1,0
08-03,sabado,h20,-4.0071166,-79.2142698,choque por alcance,de los paltas y rusia,urbana,punzara,imprudencia del conductor,0,0
08-05,lunes,h19,-4.0283625,-79.2047098,perdida de carril,albert einstein y quebrada,urbana,punzara,conducir en exceso de velocidad,0,1
08-05,lunes,h09,-4.0002873,-79.2018938,choque lateral perpendicular,bolivar y azuay,urbana,san sebastian,no ceder el derecho de via,1,0
08-07,miercoles,h16,-3.9925768,-79.2100538,choque por alcance,manuel carrion pinzano y adolfo valarezo,urbana,sucre,no mantener la distancia reglamentaria,0,0
08-07,miercoles,h16,-3.9922439,-79.2013134,arrollamiento,emiliano ortega y jose felix de valdivieso,urbana,el sagrario,no respetar las ordenes del agente de transito,1,0
08-11,domingo,h01,-3.9996085,-79.2063716,choque lateral perpendicular,ramon pinto y miguel riofrio,urbana,san sebastian,conducir en estado de embriaguez,1,0
08-11,domingo,h23,-3.9764656,-79.204476,choque frontal excentrico,juan jose flores entre 8 de diciembre,urbana,sucre,conducir en estado de embriaguez,0,0
08-12,lunes,h07,-3.995327,-79.201997,choque lateral perpendicular,universitaria y colon,urbana,el sagrario,no ceder el derecho de via,2,0
08-12,lunes,h08,-4.0074683,-79.2032145,choque lateral perpendicular,18 de noviembre y gonzanama,urbana,san sebastian,no ceder el derecho de via,1,0
08-13,martes,h11,-3.9798757,-79.217677,choque lateral angular,isidro ayora,urbana,sucre,no ceder el derecho de via,2,0
08-16,viernes,h14,-3.9730906,-79.2079108,estrellamiento,luis humberto san martin y victor ruiz guerrero,urbana,sucre,conducir en exceso de velocidad,0,0
08-17,sabado,h02,-3.9684293,-79.2097098,choque frontal excentrico,8 de diciembre,urbana,carigan,conducir en estado de embriaguez,3,0
08-16,viernes,h23,-3.9782323,-79.2240073,choque lateral angular,isidro ayora entre habana y diamantina,urbana,carigan,conducir en estado de embriaguez,1,0
08-18,domingo,h12,-4.0122708,-79.2045298,atropello,pio jaramillo alvarado y benjamin carrion,urbana,punzara,imprudencia del peaton,0,1
08-19,lunes,h05,-4.0126894,-79.2033493,choque lateral perpendicular,gobernacon de mainas y manuel agustin aguirre,urbana,punzara,no ceder el derecho de via,1,0
08-20,martes,h07,-4.0114636,-79.2011824,choque lateral angular,eduardo kingman y catamayo,urbana,san sebastian,imprudencia del conductor,0,0
08-20,martes,h17,-3.9972995,-79.203105,choque por alcance,sucre y 10 de agosto,urbana,el sagrario,no mantener la distancia reglamentaria,0,0
08-21,miercoles,h09,-3.9945526,-79.2054665,choque por alcance,manuel agustin aguirre y juan jose samaniego,urbana,san sebastian,imprudencia del conductor,0,0
08-21,miercoles,h17,-3.9957481,-79.2096503,choque frontal excentrico,eplicachima y mariano samaniego,urbana,sucre,imprudencia del conductor,0,0
08-23,viernes,h20,-3.996436,-79.235709,choque frontal excentrico,angel felicisimo rojas,urbana,sucre,conducir en estado de embriaguez,3,0
08-24,sabado,h02,-4.0014632,-79.197108,estrellamiento,macara y mercadillo,urbana,el sagrario,conducir en estado de embriaguez,0,0
08-25,domingo,h07,-3.9989417,-79.2230027,choque lateral angular,vilonaco y medardo angel silva,urbana,sucre,no ceder el derecho de via,1,0
08-25,domingo,h12,-4.00111179,-79.1998789,choque lateral angular,olmedo y mercadillo,urbana,san sebastian,no ceder el derecho de via,1,0
08-27,martes,h17,-3.9905815,-79.2054209,atropello,cuxibamba y lautaro loaiza,urbana,sucre,imprudencia del conductor,1,0
08-29,jueves,h04,-3.992085,-79.2011229,estrellamiento,orillas del zamora y jose felix de valdivieso,urbana,el sagrario,imprudencia del conductor,0,0
08-29,jueves,h17,-3.9655,-79.208011,colision,salvador bustamante celi y agustin palacios,urbana,el valle,no mantener la distancia reglamentaria,2,0
09-02,lunes,h07,-4.009448,-79.201289,roce negativo,eduardo kingman entre alamor y saraguro,urbana,san sebastian,imprudencia del conductor,2,0
08-29,jueves,h20,-3.971702,-79.209717,choque frontal excentrico,monfilio r jaramillo y angel herrera romero,urbana,sucre,imprudencia del conductor,0,0
08-30,viernes,h07,-4.0188746,-79.2131306,choque por alcance,benjamin carrion y benito juarez,urbana,punzara,no mantener la distancia reglamentaria,0,0
08-30,viernes,h17,-3.589,-79.1226,choque lateral angular,jaime roldos aguilera y velasco ibarra,urbana,carigan,no mantener la distancia reglamentaria,1,0
08-31,sabado,h01,-3.9963568,-79.2034691,choque lateral perpendicular,colon y manuel agustin aguirre,urbana,san sebastian,imprudencia del conductor,0,0
09-01,domingo,h06,-3.979491,-79.204296,perdida de carril,8 de diciembre y jaramijo,urbana,el valle,conducir en exceso de velocidad,0,0
09-01,domingo,h05,-4.0039969,-79.2041704,estrellamiento,universitaria y catacocha,urbana,san sebastian,conducir en estado de embriaguez,0,0
09-02,lunes,h15,-3.9576324,-79.2129695,estrellamiento,salvador bustamante celi y san cristobal,urbana,el valle,razones desconocidas,0,0
09-02,lunes,h19,-3.9786597,-79.2044222,choque lateral perpendicular,8 de diciembre y jaramijo,urbana,sucre,imprudencia del conductor,1,0
09-02,lunes,h16,-3.988749,-79.2045088,choque por alcance,gran colombia y tena,urbana,sucre,no mantener la distancia reglamentaria,0,0
09-03,martes,h16,-3.9921162,-79.1840569,choque por alcance,oriental de paso via loja zamora,urbana,el valle,no mantener la distancia reglamentaria,0,0
09-03,martes,h20,-4.0016434,-79.2076196,atropello,pio jaramillo alvarado y mercadillo,urbana,el sagrario,imprudencia del peaton,1,0
09-04,miercoles,h00,-3.9997503,-79.2063477,estrellamiento,ramon pinto y miguel riofrio,urbana,sucre,impericia del conductor,0,0
09-05,jueves,h19,-4.0076341,-79.2073291,choque por alcance,argentina y brasil,urbana,punzara,no mantener la distancia reglamentaria,0,0
09-07,sabado,h16,-4.0231705,-79.2002978,atropello,eduardo kingman y angel belisario moreno,urbana,san sebastian,imprudencia del peaton,1,0
09-07,sabado,h13,-4.0034537,-79.2298082,choque lateral angular,carlos arrobo carrion y eduardo de evia,urbana,sucre,imprudencia del conductor,0,0
09-08,domingo,h19,-4.0025413,-79.2043561,atropello,universtaria y lourdes,urbana,san sebastian,imprudencia del conductor,1,0
09-09,lunes,h12,-3.9928744,-79.204385,choque por alcance,18 de noviembre entre quito y jose felix de valdivieso,urbana,el sagrario,no mantener la distancia reglamentaria,0,0
09-10,martes,h15,-4.0132902,-79.2415786,choque lateral perpendicular,san agustin y marin de porres,urbana,sucre,no ceder el derecho de via,2,0
09-14,sabado,h11,-4.021817,-79.200662,perdida de carril,eduardo kingman y angel b valarezo,urbana,san sebastian,conducir en exceso de velocidad,0,0
09-15,domingo,h03,-4.0032537,-79.2074545,estrellamiento,pio jaramillo alvarado y espiritu santo correa,urbana,el sagrario,conducir en exceso de velocidad,0,0
09-15,domingo,h05,-4.009959,-79.210584,estrellamiento,guatemala y barbados,urbana,punzara,conducir en estado de embriaguez,0,0
09-15,domingo,h16,-3.9805439,-79.2029403,choque por alcance,nueva loja entre guayaquil y salinasbarrio ciudadela del maestro,urbana,el valle,conducir en estado de embriaguez,0,0
09-15,domingo,h01,-4.0165579,-79.2053148,estrellamiento,manuel agustin aguirre y manuel zambrano,urbana,punzara,conducir en estado de embriaguez,0,0
09-15,domingo,h08,-4.003729,-79.202609,choque lateral angular,sucre y catacocha,urbana,san sebastian,imprudencia del conductor,1,0
09-13,viernes,h11,-4.0105572,-79.2072686,choque por alcance,argentina entre chile y bolivia,urbana,punzara,no mantener la distancia reglamentaria,0,0
09-17,martes,h13,-3.9925484,-79.206676,choque frontal excentrico,manuel monteros y alfredo mora reyes,urbana,sucre,imprudencia del conductor,3,0
09-19,jueves,h04,-3.9786597,-79.2044222,choque lateral perpendicular,bernardo valdivieso y quito,urbana,el sagrario,conducir en estado de embriaguez,5,0
09-19,jueves,h11,-3.9829243,-79.2039103,choque lateral perpendicular,machala y riobamba,urbana,sucre,conducir en exceso de velocidad,1,0
09-19,jueves,h22,-3.9843346,-79.1977657,perdida de carril,jose coronel illescas,urbana,el valle,conducir en exceso de velocidad,0,0
09-19,jueves,h22,-4.0014913,-79.2046946,choque lateral angular,manuel agustin aguirre y mercadillo,urbana,sucre,no ceder el derecho de via,0,0
09-20,viernes,h00,-4.0013782,-79.1998573,choque lateral angular,olmedo y mercadillo,urbana,san sebastian,no ceder el derecho de via,0,0
09-20,viernes,h18,-3.991626,-79.2036269,choque lateral perpendicular,sucre y juan de salinas,urbana,el sagrario,no respetar las senales de transito,3,0
09-21,sabado,h10,-3.9798581,-79.2113786,choque por alcance,isidro ayora y salta,urbana,sucre,no mantener la distancia reglamentaria,2,0
09-21,sabado,h01,-3.998104,-79.200093,choque lateral angular,olmedo y rocafuerte,urbana,san sebastian,no ceder el derecho de via,0,0
09-21,sabado,h00,-4.0035524,-79.1933648,estrellamiento,rio maranon y rio jubones,urbana,san sebastian,conducir en estado de embriaguez,0,0
09-20,viernes,h22,-4.003372,-79.1986344,estrellamiento,juan jose pena y catacocha,urbana,san sebastian,imprudencia del conductor,0,0
09-21,sabado,h01,-3.989386,-79.203665,choque lateral angular,emiliano ortega y universitaria,urbana,el sagrario,no ceder el derecho de via,1,0
09-22,domingo,h13,-3.9720843,-79.2058943,choque lateral angular,baquerizo moreno y velasco ibarra,urbana,el valle,imprudencia del conductor,0,0
09-24,martes,h09,-3.9720843,-79.2058943,choque lateral angular,benjamin carrion y herman cortez,urbana,punzara,imprudencia del conductor,0,0
09-25,miercoles,h21,-3.9627675,-79.32144938,choque lateral angular,8 de diciembre y santiago,urbana,carigan,imprudencia del conductor,1,0
09-26,jueves,h04,-3.995097,-79.195808,estrellamiento,illiniza y corazon,urbana,el sagrario,conducir en exceso de velocidad,0,0
09-26,jueves,h22,-3.9817928,-79.215575,perdida de carril,asuncion y potosi,urbana,sucre,conducir en exceso de velocidad,0,0
09-27,viernes,h21,-3.977349,-79.205,rozamiento,sin nombre y 8 de diciembre,urbana,sucre,imprudencia del conductor,0,0
09-28,sabado,h03,-3.9808714,-79.2068494,perdida de carril,manuel carrion pinzano,urbana,sucre,conducir en exceso de velocidad,0,0
09-28,sabado,h06,-3.990461,-79.2051397,choque lateral angular,gran colombia y cuxibamba,urbana,sucre,no respetar las senales de transito,3,0
09-29,domingo,h00,-4.0002526,-79.2009587,choque lateral perpendicular,bernardo valdivieso y azuay,urbana,san sebastian,conducir en estado de embriaguez,1,0
09-29,domingo,h02,-4.019247,-79.2288458,perdida de carril,angel felicisimo rojas y eugenio espejo,urbana,sucre,conducir en exceso de velocidad,0,0
09-30,lunes,h15,-4.0046785,-79.2043306,choque lateral angular,manuel austin aguirre y jose picoita,urbana,el sagrario,no ceder el derecho de via,0,0
10-01,martes,h14,-4.0122708,-79.2045298,choque lateral perpendicular,pio jaramillo alvarado y manuel benjamin carrion,urbana,punzara,no ceder el derecho de via,0,0
10-02,miercoles,h09,-4.9984314,-79.2050775,atropello,manuel agustin aguirre y rocafuerte,urbana,sucre,no respetar las senales de transito,1,0
10-02,miercoles,h12,-3.9814362,-79.2044642,perdida de carril,8 de diciembre y guayaquil,urbana,el valle,conducir en exceso de velocidad,1,1
10-04,viernes,h09,-4.0078765,-79.2086607,choque lateral perpendicular,brasil y colombia,urbana,punzara,no ceder el derecho de via,0,0
10-05,sabado,h18,-3.998459,-79.2116778,choque lateral angular,eugenio espejo y quinara,urbana,sucre,no ceder el derecho de via,1,0
10-04,viernes,h10,-3.9852974,-79.1968217,choque lateral angular,jose coronel illescas y paris,urbana,el valle,no ceder el derecho de via,1,0
10-05,sabado,h04,-3.9982735,-79.2035026,estrellamiento,rocafuerte entre sucre y 18 de noviembre,urbana,el sagrario,imprudencia del peaton,0,0
10-07,lunes,h12,-3.9802672,-79.2043718,choque lateral angular,8 de diciembre,urbana,sucre,no ceder el derecho de via,1,0
10-07,lunes,h14,-3.9880647,-79.2101876,estrellamiento,manuel carrion pinzano y pedro falconi,urbana,sucre,conducir en estado de embriaguez,1,0
10-08,martes,h05,-4.001592,-79.205592,choque lateral perpendicular,lauro guerrero y mercadillo,urbana,sucre,no ceder el derecho de via,0,0
10-08,martes,h18,-3.9953834,-79.204592,choque por alcance,18 de noviembre y colon,urbana,el sagrario,no mantener la distancia reglamentaria,0,0
10-10,jueves,h03,-4.0050416,-79.2061604,estrellamiento,pio jaramillo alvarado entre jose picoita y jose maria pena,urbana,punzara,conducir en estado de embriaguez,1,0
10-12,sabado,h10,-4.0550653,-79.1959132,choque por alcance,exodo de yangana y sn,urbana,san sebastian,no mantener la distancia reglamentaria,1,0
10-12,sabado,h16,-3.9844599,-79.2059219,choque por alcance,cuxibamba entre ibarra y latacunga,urbana,sucre,no mantener la distancia reglamentaria,0,0
10-11,viernes,h22,-3.9920841,-79.2099975,estrellamiento,manuel carrion pinzano entre carlos erreis y adolfo valarezo,urbana,sucre,conducir en estado de embriaguez,0,0
10-12,sabado,h23,-4.001468,-79.2044725,choque lateral perpendicular,universitaria y mercadillo,urbana,san sebastian,conducir en estado de embriaguez,0,0
10-15,martes,h13,-4.0455315,-79.1969287,perdida de carril,exodo de yangana,urbana,san sebastian,conducir en exceso de velocidad,0,0
10-16,miercoles,h17,-4.0258875,-79.2030397,choque lateral angular,pio jaramillo alvarado y thomas alba edison,urbana,punzara,no ceder el derecho de via,0,0
10-19,sabado,h08,-3.9776775,-79.2359562,perdida de carril,angel felicisimo rojas,urbana,carigan,conducir en exceso de velocidad,0,0
10-20,domingo,h10,-4.0046937,-79.2034396,atropello,cariamanga entre 18 de noviembre y sucre,urbana,san sebastian,conducir en exceso de velocidad,1,0
10-21,lunes,h12,-4.0098643,-79.2016305,perdida de carril,alamor y eduardo kingman,urbana,san sebastian,conducir en exceso de velocidad,0,0
10-22,martes,h06,-3.9596631,-79.2165139,choque por alcance,8 de diciembre y manuela saenz,urbana,carigan,no mantener la distancia reglamentaria,0,0
10-22,martes,h16,-3.9794092,-79.2143823,choque por alcance,isidro ayora y asuncion,urbana,sucre,no mantener la distancia reglamentaria,0,0
10-22,martes,h21,-3.984391,-79.194081,perdida de carril,via a yanacocha y sin nombre,urbana,el valle,conducir en exceso de velocidad,0,0
10-22,martes,h21,-4.0263177,-79.2131357,choque lateral perpendicular,juan pio montufar y antonio vivaldi,urbana,punzara,no ceder el derecho de via,0,0
10-25,viernes,h13,-4.0098125,-79.1999772,choque frontal excentrico,maximo agustin rodriguez y grabiela mistral,urbana,san sebastian,conducir en estado de embriaguez,0,0
10-27,domingo,h01,-4.0147886,-79.20761,choque lateral angular,manuel carrion pinzano y jose palacios,urbana,punzara,conducir en estado de embriaguez,1,0
10-27,domingo,h06,-3.9871257,-79.2054788,choque lateral perpendicular,cuxibamba y bolivar bailon,urbana,sucre,conducir en estado de embriaguez,1,0
10-28,lunes,h23,-3.9992504,-79.2044751,choque lateral perpendicular,universitaria y miguel riofrio,urbana,sucre,no ceder el derecho de via,0,0
11-01,viernes,h07,-3.979637,-79.232238,atropello,isidro ayora,urbana,sucre,conducir en estado de embriaguez,1,0
11-02,sabado,h14,-3.99812471,-79.233594,choque por alcance,isidro ayora y angel felicisimo rojas,urbana,sucre,conducir en estado de embriaguez,0,0
11-02,sabado,h22,-3.9765068,-79.2019701,choque lateral perpendicular,orillas del zamora y isidro ayora,urbana,el valle,no ceder el derecho de via,0,0
11-02,sabado,h21,-4.013128,-79.203273,roce negativo,manuel agustin aguirre y gobernacion de mainas,urbana,punzara,conducir en estado de embriaguez,0,0
11-03,domingo,h16,-3.970399,-79.2074727,perdida de carril,8 de diciembre y diego noboa,urbana,sucre,conducir en exceso de velocidad,1,0
11-05,martes,h08,-3.9758556,-79.2081627,atropello,turunuma y valencia instalaciones del centro de acopio loja gas,urbana,sucre,imprudencia del conductor,0,1
11-06,miercoles,h08,-3.9698658,-79.2079436,choque lateral perpendicular,8 de diciembre y jaime roldos aguilera,urbana,carigan,no ceder el derecho de via,0,0
11-07,jueves,h00,-4.0097307,-79.2046875,perdida de carril,pio jaramillo alvarado y chile,urbana,punzara,conducir en exceso de velocidad,0,1
11-08,viernes,h09,-3.9980143,-79.2366593,perdida de carril,angel felicisimo rojas y villonaco,urbana,sucre,conducir en exceso de velocidad,1,0
11-08,viernes,h13,-4.0028825,-79.1967355,estrellamiento,leopoldo palacios entre macara y sabiango,urbana,el sagrario,conducir en exceso de velocidad,0,0
11-08,viernes,h16,-4.0141118,-79.2009757,colision,eduardo kingman y gobernacion de mainas,urbana,san sebastian,conducir en estado de embriaguez,0,0
11-09,sabado,h04,-3.9941262,-79.2101989,perdida de carril,manuel carrion pinzano,urbana,sucre,conducir en exceso de velocidad,0,0
11-10,domingo,h14,-3.919663,-79.258167,choque por alcance,via loja cuenca,urbana,carigan,no mantener la distancia reglamentaria,0,0
11-10,domingo,h14,-4.026837,-79.203097,choque lateral angular,pio jaramillo alvarado y galileo galilei,urbana,punzara,no ceder el derecho de via,1,0
11-10,domingo,h00,-3.9875595,-79.235942,choque frontal excentrico,angel felicisimo rojas,urbana,sucre,conducir en estado de embriaguez,0,0
11-11,lunes,h13,-3.977028,-79.204905,choque por alcance,isidro ayora y 8 de diciembre,urbana,sucre,no mantener la distancia reglamentaria,0,0
11-12,martes,h21,-3.9622199,-79.2148281,atropello,8 de diciembre y pedro de leiva,urbana,carigan,imprudencia del peaton,1,0
11-13,miercoles,h15,-3.9864209,-79.1906269,choque lateral angular,via loja zamora,urbana,el valle,conducir en estado de embriaguez,3,0
11-13,miercoles,h18,-4.0102037,-79.2046988,choque lateral angular,pio jaramillo alvarado y chile,urbana,punzara,imprudencia del conductor,0,0
11-14,jueves,h17,-4.0296989,-79.2071083,choque lateral perpendicular,milton patino y tnte hugo ortiz,urbana,punzara,no ceder el derecho de via,1,0
11-15,viernes,h08,-3.9824787,-79.2053947,choque lateral perpendicular,cuxibamba y riobamba,urbana,sucre,imprudencia del conductor,2,0
11-16,sabado,h00,-3.9783742,-79.2267433,choque frontal excentrico,isidro ayora,urbana,sucre,conducir en estado de embriaguez,1,1
11-16,sabado,h12,-3.9956576,-79.206828819,choque lateral angular,lauro guerrero y colon,urbana,el sagrario,no ceder el derecho de via,2,1
11-16,sabado,h04,-4.0001164,-79.2335872,estrellamiento,angel felicisimo rojas,urbana,sucre,conducir en estado de embriaguez,1,0
11-16,sabado,h13,-3.9894015,-79.2053331,choque lateral perpendicular,cuxibamba y canar,urbana,sucre,imprudencia del conductor,0,0
11-16,sabado,h21,-4.0015245,-79.2055762,choque lateral perpendicular,mercadillo y lauro guerrero,urbana,sucre,imprudencia del conductor,0,0
11-16,sabado,h22,-3.9804632,-79.2003199,choque por alcance,oriental de paso y portoviejo,urbana,el valle,no mantener la distancia reglamentaria,1,0
11-17,domingo,h14,-3.9830019,-79.2034178,choque lateral angular,santo domingo y riobamba,urbana,sucre,no respetar las senales de transito,0,0
11-18,lunes,h08,-3.9793225,-79.2126647,colision,isidro ayora y montevideo,urbana,sucre,imprudencia del conductor,0,0
11-18,lunes,h10,-4.0059573,-79.2041504,choque lateral perpendicular,manuel agustin aguirre y brasil,urbana,el sagrario,no respetar las senales de transito,4,0
11-19,martes,h01,-3.997053,-79.199099,choque por alcance,juan jose pena y 10 de agosto,urbana,el sagrario,conducir en estado de embriaguez,0,0
11-19,martes,h16,-3.9773185,-79.2356253,choque lateral angular,angel felicisimo rojas,urbana,sucre,conducir en exceso de velocidad,0,0
11-19,martes,h15,-3.9729858,-79.2183535,estrellamiento,pablo palacios,urbana,carigan,conducir en exceso de velocidad,1,0
11-19,martes,h18,-4.036152,-79.203339,atipico,sin nombre / interior de las instalaciones de la universidad nacional de loja,urbana,punzara,imprudencia del conductor,0,0
11-21,jueves,h11,-3.9770205,-79.2045282,roce negativo,8 de diciembre y isidro ayora,urbana,el valle,no mantener la distancia reglamentaria,0,0
11-22,viernes,h10,-4.025559,-79.210896,choque lateral angular,cesar frank y eloy alfaro,urbana,punzara,no respetar las senales de transito,1,0
11-22,viernes,h01,-3.977331,-79.204696,perdida de carril,8 de diciembre y isidro ayora,urbana,el valle,conducir en exceso de velocidad,0,0
11-22,viernes,h05,-3.97854,-79.207722,perdida de carril,manuel carrion pinzano y victoriano palacios,urbana,el valle,conducir en exceso de velocidad,0,0
11-23,sabado,h01,-3.9922596,-79.2010708,choque lateral perpendicular,orillas del zamora y jose felix de valdivieso,urbana,el sagrario,conducir en estado de embriaguez,0,0
11-23,sabado,h11,-4.004192,-79.214711,estrellamiento,cayapas y najaros,urbana,sucre,conducir en exceso de velocidad,0,0
11-24,domingo,h05,-3.9966718,-79.2052574,estrellamiento,manuel agustin aguirre y jose antonio eguiguren,urbana,sucre,conducir en estado de embriaguez,0,0
11-24,domingo,h17,-3.9942802,-79.2033116,choque lateral perpendicular,sucre e imbabura,urbana,el sagrario,no ceder el derecho de via,1,0
11-26,martes,h18,-3.9790397,-79.2023165,choque lateral perpendicular,babahoyo y chone,urbana,el valle,conducir en exceso de velocidad,1,0
11-26,martes,h22,-4.0282312,-79.2086077,estrellamiento,eloy alfaro a la altura del upc,urbana,punzara,conducir en exceso de velocidad,0,0
11-29,viernes,h01,-4.0228672,-79.2003706,perdida de carril,eduardo kingman,urbana,san sebastian,imprudencia del conductor,1,1
11-29,viernes,h22,-4.0025373,-79.2074781,choque por alcance,pio jaramillo alvarado entre tnt maximiliano rodriguez y mercadillo,urbana,sucre,no mantener la distancia reglamentaria,0,0
11-29,viernes,h23,-3.98141,-79.2015199,choque lateral angular,salvador bustamante celi y guayaquil,urbana,el valle,conducir en estado de embriaguez,0,0
11-30,sabado,h02,-3.9969599,-79.2001607,choque lateral angular,10 de agosto y olmedo,urbana,el sagrario,conducir en estado de embriaguez,0,0
11-30,sabado,h06,-3.9829856,-79.2009556,estrellamiento,portoviejo y esmeraldas,urbana,el valle,conducir en estado de embriaguez,0,0
11-30,sabado,h16,-3.980719,-79.224103,estrellamiento,cumanda a 50 metros pasando el colegio jose maria vivar castro en direcion al sur,urbana,sucre,conducir en exceso de velocidad,0,0
12-01,domingo,h00,-3989022,-79.203937,estrellamiento,nueva loja y machala,urbana,sucre,conducir en estado de embriaguez,0,0
12-01,domingo,h04,-3.986909,-79.214856,atropello,san carlos y la cruz,urbana,sucre,conducir en estado de embriaguez,1,0
12-01,domingo,h06,-3.006988,-79.205436,choque lateral angular,brasil y pio jaramillo alvarado,urbana,el sagrario,no respetar las senales de transito,0,0
12-01,domingo,h02,-3.9964755,-79.2052803,choque lateral perpendicular,manuel agustin aguirre y jose antonio eguiguren,urbana,sucre,conducir en estado de embriaguez,1,0
12-01,domingo,h09,-3.9603996,-79.2163935,estrellamiento,8 de diciembre y belisario moreno,urbana,carigan,imprudencia del conductor,0,0
12-01,domingo,h05,-3.9887226,-79.2102521,colision,manuel carrion pinzano y pedro falconi,urbana,sucre,conducir en estado de embriaguez,0,0
12-02,lunes,h16,-3.9384964,-79.2258358,atropello,pablo picasso y via antigua a cuenca,urbana,carigan,imprudencia del conductor,0,1
12-03,martes,h01,-4.003576,-79.212568,perdida de carril,de los paltas y tnt maximiliano rodriguez,urbana,punzara,conducir en estado de embriaguez,3,0
12-04,miercoles,h22,-3.999493,-79.205436,choque lateral perpendicular,universitaria y miguel riofrio,urbana,el sagrario,no respetar las senales de transito,0,0
12-05,jueves,h22,-4.0768988,-79.1963763,perdida de carril,exodo de yangana,urbana,punzara,conducir en estado de embriaguez,1,0
12-07,sabado,h11,-3.9926761,-79.2106113,atropello,eugenio espejo y juan maria riofrio,urbana,sucre,imprudencia del conductor,1,0
12-06,viernes,h02,-4.0015997,-79.20614,choque lateral perpendicular,mercadillo y ramon pinto,urbana,el sagrario,conducir en estado de embriaguez,0,0
12-07,sabado,h01,-3.9830018,-79.202403,perdida de carril,santiago de las montanas y orillas del zamora,urbana,el valle,conducir en estado de embriaguez,1,0
12-07,sabado,h16,-4.0007921,-79.1971627,perdida de carril,macara y mercadillo,urbana,el sagrario,conducir en estado de embriaguez,0,0
12-07,sabado,h02,-3.9981528,-79.2000963,atropello,olmedo y rocafuerte,urbana,el sagrario,conducir en exceso de velocidad,1,0
12-02,lunes,h02,-4.004239,-79.199695,choque lateral perpendicular,olmedo y andres bello,urbana,san sebastian,no respetar las senales de transito,0,0
12-07,sabado,h16,-4.000213,-79.2321693,choque lateral angular,angel felicisimo rojas,urbana,sucre,conducir en estado de embriaguez,0,0
12-08,domingo,h13,-3.9991402,-79.2000169,choque lateral perpendicular,olmedo y miguel riofrio,urbana,el sagrario,imprudencia del conductor,0,0
12-09,lunes,h20,-3.998243,-79.204868,choque lateral angular,universitaria y rocafuerte,urbana,el sagrario,no respetar las senales de transito,0,0
12-08,domingo,h20,-3.601587,-79.2162331,choque frontal longitudinal,8 de diciembre y belisario moreno,urbana,carigan,conducir en estado de embriaguez,1,0
12-13,viernes,h23,-4.0004241,-79.2048702,choque lateral angular,manuel agustin aguirre y azuay,urbana,sucre,conducir en estado de embriaguez,0,0
12-13,viernes,h23,-4.0000059,-79.1988756,choque lateral angular,juan jose pena y azuay,urbana,el sagrario,no respetar las senales de transito,0,0
12-13,viernes,h16,-3.95949,-79.234673,volcamiento longitudinal,sin nombre y angel felicisimo rojas,urbana,carigan,conducir en exceso de velocidad,0,0
12-14,sabado,h02,-4.0157093,-79.2039928,estrellamiento,pio jaramillo alvarado alvardo y abraham lincoln,urbana,punzara,conducir en exceso de velocidad,0,0
12-15,domingo,h17,-3.9780856,-79.2224271,perdida de carril,via loja catamayo - isidro ayora,urbana,sucre,conducir en exceso de velocidad,0,0
12-16,lunes,h20,-3.9680786,-79.2101896,choque lateral angular,8 de diciembre,urbana,carigan,no respetar las senales de transito,0,0
12-17,martes,h12,-4.011026,-79.205885,choque lateral angular,chile y mexico,urbana,punzara,no respetar las senales de transito,0,0
12-18,miercoles,h11,-3.9982361,-79.2030125,atropello,sucre y rocafuerte,urbana,el sagrario,no respetar las senales de transito,1,0
12-18,miercoles,h22,-3.980427,-79.212398,perdida de carril,mendoza entre asuncion y rosario,urbana,sucre,conducir en estado de embriaguez,0,0
12-18,miercoles,h12,-3.9441413,-79.2221469,choque lateral angular,8 de diciembre y chantaco,urbana,carigan,no respetar las senales de transito,0,0
12-20,viernes,h03,-3.9960667,-79.213364917,estrellamiento,calicuchima y panzaleos,urbana,sucre,conducir en exceso de velocidad,0,0
12-20,viernes,h02,-4.001148,-79.199887,roce negativo,olmedo y mercadillo,urbana,san sebastian,conducir en estado de embriaguez,0,0
12-20,viernes,h22,-3.99621,-79.200227,choque lateral perpendicular,olmedo y jose antonio eguiguren,urbana,el sagrario,no respetar las senales de transito,0,0
12-20,viernes,h21,-3.9782133,-79.2239124,perdida de carril,isidro ayora y cumanda,urbana,sucre,conducir en exceso de velocidad,0,0
12-20,viernes,h23,-3.9941634,-79.1974405,estrellamiento,zoilo rodriguez entre antizana y victor vivar,urbana,el sagrario,conducir en exceso de velocidad,0,0
12-21,sabado,h07,-4.031098,-79.2150152,perdida de carril,angel felicisimo rojas,urbana,punzara,conducir en exceso de velocidad,0,0
12-22,domingo,h00,-4.046871,-79.1969381,perdida de carril,exodo de yangana,urbana,punzara,conducir en exceso de velocidad,0,0
12-21,sabado,h20,-4.0340554,-79.1987228,perdida de carril,exodo de yangana,urbana,punzara,conducir en exceso de velocidad,0,0
12-19,jueves,h11,-3.970334,-79.209657,choque lateral angular,pablo palacios y arturo armijos ayala,urbana,carigan,no respetar las senales de transito,0,0
12-25,miercoles,h06,-4.0036209,-79.1996818,estrellamiento,olmedo y catacocha,urbana,san sebastian,imprudencia del conductor,1,0
12-25,miercoles,h15,-4.0040877,-79.1902601,choque lateral angular,rio maranon y rio pilcomayo,urbana,san sebastian,no respetar las senales de transito,0,0
12-26,jueves,h19,-3.9914276,-79.2012288,choque lateral perpendicular,orillas de zamora y daniel alvarez,urbana,el valle,no respetar las senales de transito,0,0
12-27,viernes,h10,-4.0095702,-79.2036506,choque lateral perpendicular,manuel agustin aguirre y chile,urbana,punzara,no respetar las senales de transito,0,0
12-28,sabado,h07,-4.0088371,-79.196709,estrellamiento,jose enrique rodo y ramon y cajal,urbana,san sebastian,conducir en estado de embriaguez,0,0
12-29,domingo,h00,-4.0036817,-79.2141145,choque lateral perpendicular,eugenio espejo y colorados,urbana,sucre,no respetar las senales de transito,0,0
12-28,sabado,h00,-3.995147,-79.200312,choque lateral angular,olmedo y colon,urbana,el sagrario,no ceder el derecho de via,0,0
12-29,domingo,h02,-3.9875987,-79.2100894,estrellamiento,manuel carrion pinzano y bolivar bailon,urbana,sucre,conducir en estado de embriaguez,0,0
